{"events":[{"id":"q-h-Q80082","name":"Diomede","startYear":1970,"lat":65.758333333,"lon":-168.951666666,"category":"city","wikidataId":"Q80082","wikiTitle":"Diomede","notability":45},{"id":"q-h-Q80120","name":"King Cove","startYear":1949,"lat":55.06087,"lon":-162.31853,"category":"city","wikidataId":"Q80120","wikiTitle":"King Cove","notability":39},{"id":"q-h-Q950654","name":"Atmautluak","startYear":1976,"lat":60.8622075,"lon":-162.2857779,"category":"city","wikidataId":"Q950654","wikiTitle":"Atmautluak","notability":28},{"id":"q-h-Q2172124","name":"Kipnuk","startYear":1968,"lat":59.937619,"lon":-164.043926,"category":"event","wikidataId":"Q2172124","wikiTitle":"Kipnuk","notability":27},{"id":"q-h-Q2255196","name":"Tuluksak","startYear":1970,"lat":61.1025,"lon":-160.961,"category":"event","wikidataId":"Q2255196","wikiTitle":"Tuluksak","notability":27},{"id":"q-h-Q1020011","name":"Lavrentiya","startYear":1928,"lat":65.584153611,"lon":-170.988902777,"category":"city","wikidataId":"Q1020011","wikiTitle":"Lavrentiya","notability":24},{"id":"q-h-Q1023609","name":"Iultin","startYear":1953,"lat":67.876111111,"lon":-178.738888888,"category":"event","wikidataId":"Q1023609","wikiTitle":"Iultin","notability":18},{"id":"q-h-Q1144135","name":"1946 Aleutian Islands earthquake","startYear":1946,"lat":52.8,"lon":-163.5,"category":"disaster","wikidataId":"Q1144135","wikiTitle":"1946 Aleutian Islands earthquake","notability":15},{"id":"q-h-Q619997","name":"Bethel Airport","startYear":1958,"lat":60.778611111,"lon":-161.837222222,"category":"event","wikidataId":"Q619997","wikiTitle":"Bethel Airport","notability":14},{"id":"q-h-Q84329676","name":"PenAir Flight 3296","startYear":2019,"lat":53.894,"lon":-166.5373,"category":"event","wikidataId":"Q84329676","wikiTitle":"PenAir Flight 3296","notability":13},{"id":"q-h-Q132161853","name":"Bering Air Flight 445","startYear":2025,"lat":64.35,"lon":-164.266666666,"category":"event","wikidataId":"Q132161853","wikiTitle":"Bering Air Flight 445","notability":12},{"id":"q-h-Q543075","name":"Battle of Dutch Harbor","startYear":1942,"lat":53.8875,"lon":-166.54222222,"category":"battle","wikidataId":"Q543075","wikiTitle":"Battle of Dutch Harbor","notability":12}]}