{"events":[{"id":"q-h-Q85","name":"Cairo","startYear":969,"lat":30.044444444,"lon":31.235833333,"category":"event","wikidataId":"Q85","wikiTitle":"Cairo","notability":260},{"id":"q-h-Q17151","name":"Thessaloniki","startYear":-314,"lat":40.640277777,"lon":22.935555555,"category":"event","wikidataId":"Q17151","wikiTitle":"Thessaloniki","notability":157},{"id":"q-h-Q16869","name":"Constantinople","startYear":330,"lat":41.01224,"lon":28.976018,"category":"city","wikidataId":"Q16869","wikiTitle":"Constantinople","notability":126},{"id":"q-h-Q100188","name":"Cluj-Napoca","startYear":1213,"lat":46.76891,"lon":23.59066,"category":"city","wikidataId":"Q100188","wikiTitle":"Cluj-Napoca","notability":123},{"id":"q-h-Q79857","name":"Konya","startYear":-699,"lat":37.872769444,"lon":32.492138888,"category":"city","wikidataId":"Q79857","wikiTitle":"Konya","notability":115}]}