{"events":[{"id":"q-h-Q914","name":"Volgograd","startYear":1589,"lat":48.708611111,"lon":44.514722222,"category":"event","wikidataId":"Q914","wikiTitle":"Volgograd","notability":157},{"id":"q-h-Q3752","name":"Maykop","startYear":1857,"lat":44.6,"lon":40.083333333,"category":"city","wikidataId":"Q3752","wikiTitle":"Maykop","notability":103},{"id":"q-h-Q5239","name":"Vladikavkaz","startYear":1784,"lat":43.04,"lon":44.6775,"category":"event","wikidataId":"Q5239","wikiTitle":"Vladikavkaz","notability":103},{"id":"q-h-Q230104","name":"Nakhchivan","startYear":-1499,"lat":39.208888888,"lon":45.412222222,"category":"city","wikidataId":"Q230104","wikiTitle":"Nakhchivan","notability":85},{"id":"q-h-Q5699","name":"Ur","startYear":-3799,"lat":30.962222,"lon":46.104444,"category":"monument","wikidataId":"Q5699","wikiTitle":"Ur","notability":85},{"id":"q-h-Q198989","name":"Aktau","startYear":1958,"lat":43.6525,"lon":51.1575,"category":"city","wikidataId":"Q198989","wikiTitle":"Aktau","notability":82},{"id":"q-h-Q41970","name":"Pyatigorsk","startYear":1780,"lat":44.033333,"lon":43.05,"category":"city","wikidataId":"Q41970","wikiTitle":"Pyatigorsk","notability":82},{"id":"q-h-Q183394","name":"Vagharshapat","startYear":-684,"lat":40.172777777,"lon":44.2925,"category":"event","wikidataId":"Q183394","wikiTitle":"Vagharshapat","notability":80},{"id":"q-h-Q5222","name":"Magas","startYear":1995,"lat":43.166666666,"lon":44.816666666,"category":"event","wikidataId":"Q5222","wikiTitle":"Magas","notability":80},{"id":"q-h-Q182521","name":"Rustavi","startYear":1948,"lat":41.543611111,"lon":45.011666666,"category":"city","wikidataId":"Q182521","wikiTitle":"Rustavi","notability":79},{"id":"q-h-Q213271","name":"Baku Metro","startYear":1940,"lat":40.366655555,"lon":49.835183333,"category":"event","wikidataId":"Q213271","wikiTitle":"Baku Metro","notability":78},{"id":"q-h-Q185345","name":"Poti","startYear":601,"lat":42.15,"lon":41.666666666,"category":"city","wikidataId":"Q185345","wikiTitle":"Poti","notability":77},{"id":"q-h-Q163935","name":"Nazran","startYear":1781,"lat":43.216666666,"lon":44.766666666,"category":"event","wikidataId":"Q163935","wikiTitle":"Nazran","notability":76},{"id":"q-h-Q153676","name":"Kislovodsk","startYear":1803,"lat":43.91,"lon":42.72,"category":"event","wikidataId":"Q153676","wikiTitle":"Kislovodsk","notability":75},{"id":"q-h-Q191204","name":"Sulaymaniyah","startYear":1784,"lat":35.55,"lon":45.433333333,"category":"city","wikidataId":"Q191204","wikiTitle":"Sulaymaniyah","notability":75},{"id":"q-h-Q192541","name":"Ctesiphon","startYear":-120,"lat":33.093611,"lon":44.580833,"category":"monument","wikidataId":"Q192541","wikiTitle":"Ctesiphon","notability":75},{"id":"q-h-Q158903","name":"Shusha","startYear":1752,"lat":39.760213203,"lon":46.750376945,"category":"city","wikidataId":"Q158903","wikiTitle":"Shusha","notability":72}]}