{"events":[{"id":"q-h-Q844430","name":"Phuket","startYear":1912,"lat":7.888055555,"lon":98.3975,"category":"city","wikidataId":"Q844430","wikiTitle":"Phuket","notability":60},{"id":"q-h-Q375634","name":"Sinharaja Forest Reserve","startYear":1978,"lat":6.24,"lon":80.28,"category":"event","wikidataId":"Q375634","wikiTitle":"Sinharaja Forest Reserve","notability":43},{"id":"q-h-Q289175","name":"Temple of the Tooth","startYear":1595,"lat":7.293611111,"lon":80.641388888,"category":"event","wikidataId":"Q289175","wikiTitle":"Temple of the Tooth","notability":33},{"id":"q-h-Q4273083","name":"Kualanamu International Airport","startYear":2013,"lat":3.641744444,"lon":98.877969444,"category":"event","wikidataId":"Q4273083","wikiTitle":"Kualanamu International Airport","notability":33},{"id":"q-h-Q383991","name":"2012 Indian Ocean earthquakes","startYear":2012,"lat":2.348,"lon":93.072,"category":"disaster","wikidataId":"Q383991","wikiTitle":"2012 Indian Ocean earthquakes","notability":31},{"id":"q-h-Q815718","name":"2009 Sumatra earthquakes","startYear":2009,"lat":-0.725,"lon":99.856,"category":"event","wikidataId":"Q815718","wikiTitle":"2009 Sumatra earthquakes","notability":27},{"id":"q-h-Q460476","name":"One-Two-GO Airlines Flight 269","startYear":2007,"lat":8.114166666,"lon":98.320555555,"category":"event","wikidataId":"Q460476","wikiTitle":"One-Two-GO Airlines Flight 269","notability":26},{"id":"q-h-Q1548318","name":"Baiturrahman Grand Mosque","startYear":1879,"lat":5.553611111,"lon":95.317194444,"category":"event","wikidataId":"Q1548318","wikiTitle":"Baiturrahman Grand Mosque","notability":25},{"id":"q-h-Q3491563","name":"Avukana Buddha statue","startYear":400,"lat":8.02277778,"lon":80.52027778,"category":"event","wikidataId":"Q3491563","wikiTitle":"Avukana Buddha statue","notability":24},{"id":"q-h-Q746785","name":"Mandala Airlines Flight 091","startYear":2005,"lat":3.58333333,"lon":98.66666667,"category":"event","wikidataId":"Q746785","wikiTitle":"Mandala Airlines Flight 091","notability":23},{"id":"q-h-Q1094356","name":"South Thailand insurgency","startYear":2004,"lat":8.05923,"lon":99.97559,"category":"event","wikidataId":"Q1094356","wikiTitle":"South Thailand insurgency","notability":23},{"id":"q-h-Q277450","name":"Aceh War","startYear":1873,"lat":4.59,"lon":97.41,"category":"event","wikidataId":"Q277450","wikiTitle":"Aceh War","notability":22},{"id":"q-h-Q1312405","name":"2004 Sri Lanka tsunami-rail disaster","startYear":2004,"lat":6.168889,"lon":80.090833,"category":"event","wikidataId":"Q1312405","wikiTitle":"2004 Sri Lanka tsunami-rail disaster","notability":22},{"id":"q-h-Q3503541","name":"Garuda Indonesia Flight 152","startYear":1997,"lat":3.26472222,"lon":98.68,"category":"event","wikidataId":"Q3503541","wikiTitle":"Garuda Indonesia Flight 152","notability":21},{"id":"q-h-Q2673757","name":"Sultan Iskandar Muda International Airport","startYear":1943,"lat":5.523333333,"lon":95.420277777,"category":"event","wikidataId":"Q2673757","wikiTitle":"Sultan Iskandar Muda International Airport","notability":19},{"id":"q-h-Q612396","name":"Thai Airways International Flight 261","startYear":1998,"lat":9.1275,"lon":99.1406,"category":"event","wikidataId":"Q612396","wikiTitle":"Thai Airways International Flight 261","notability":18},{"id":"q-h-Q1388166","name":"Nakhon Si Thammarat Airport","startYear":1998,"lat":8.539444444,"lon":99.944722222,"category":"event","wikidataId":"Q1388166","wikiTitle":"Nakhon Si Thammarat Airport","notability":18},{"id":"q-h-Q2218604","name":"Aceh Tsunami Museum","startYear":2009,"lat":5.54772222,"lon":95.31508333,"category":"monument","wikidataId":"Q2218604","wikiTitle":"Aceh Tsunami Museum","notability":18},{"id":"q-h-Q4207890","name":"Martinair Flight 138","startYear":1974,"lat":6.89222,"lon":80.49056,"category":"event","wikidataId":"Q4207890","wikiTitle":"Martinair Flight 138","notability":18},{"id":"q-h-Q939106","name":"2005 Sumatra earthquake","startYear":2005,"lat":2.07638889,"lon":97.01611111,"category":"disaster","wikidataId":"Q939106","wikiTitle":"2005 Sumatra earthquake","notability":17},{"id":"q-h-Q20593793","name":"2015 Indonesia Hercules C-130 crash","startYear":2015,"lat":3.525330555,"lon":98.630672222,"category":"event","wikidataId":"Q20593793","wikiTitle":"2015 Indonesia Hercules C-130 crash","notability":17},{"id":"q-h-Q1548655","name":"Phuket Giant Buddha","startYear":2004,"lat":7.827680555,"lon":98.3129,"category":"event","wikidataId":"Q1548655","wikiTitle":"Phuket Giant Buddha","notability":16},{"id":"q-h-Q3119056","name":"Royal Botanic Gardens, Peradeniya","startYear":1843,"lat":7.27111,"lon":80.5956,"category":"event","wikidataId":"Q3119056","wikiTitle":"Royal Botanic Gardens, Peradeniya","notability":15},{"id":"q-h-Q138567686","name":"sinking of IRIS Dena","startYear":2026,"lat":5.349444444,"lon":80.215555555,"category":"event","wikidataId":"Q138567686","wikiTitle":"sinking of IRIS Dena","notability":15},{"id":"q-h-Q390564","name":"Hatton","startYear":1821,"lat":6.889722222,"lon":80.598055555,"category":"city","wikidataId":"Q390564","wikiTitle":"Hatton","notability":14},{"id":"q-h-Q1674833","name":"Maimun Palace","startYear":1898,"lat":3.5752,"lon":98.68381,"category":"monument","wikidataId":"Q1674833","wikiTitle":"Maimun Palace","notability":14},{"id":"q-h-Q1896585","name":"Pallekele International Cricket Stadium","startYear":2009,"lat":7.280278,"lon":80.722222,"category":"event","wikidataId":"Q1896585","wikiTitle":"Pallekele International Cricket Stadium","notability":13},{"id":"q-h-Q3498417","name":"Batak Christian Protestant Church","startYear":1861,"lat":2.879106,"lon":98.969489,"category":"event","wikidataId":"Q3498417","wikiTitle":"Batak Christian Protestant Church","notability":13},{"id":"q-h-Q3535947","name":"Burning of Jaffna library","startYear":1981,"lat":9.66206,"lon":80.0118,"category":"event","wikidataId":"Q3535947","wikiTitle":"Burning of Jaffna library","notability":13},{"id":"q-h-Q3083280","name":"University of Peradeniya","startYear":1942,"lat":7.25417,"lon":80.5967,"category":"event","wikidataId":"Q3083280","wikiTitle":"University of Peradeniya","notability":12},{"id":"q-h-Q3522487","name":"Galle International Stadium","startYear":1876,"lat":6.031441666,"lon":80.216327777,"category":"event","wikidataId":"Q3522487","wikiTitle":"Galle International Stadium","notability":12},{"id":"q-h-Q12497331","name":"Great Mosque of Medan","startYear":1909,"lat":3.575111,"lon":98.687321,"category":"event","wikidataId":"Q12497331","wikiTitle":"Great Mosque of Medan","notability":12}]}