{"events":[{"id":"q-h-Q6816","name":"Ulan-Ude","startYear":1666,"lat":51.827222222,"lon":107.606388888,"category":"event","wikidataId":"Q6816","wikiTitle":"Ulan-Ude","notability":101},{"id":"q-h-Q53139","name":"Chita","startYear":1653,"lat":52.033409,"lon":113.500893,"category":"event","wikidataId":"Q53139","wikiTitle":"Chita","notability":93},{"id":"q-h-Q125953","name":"Tunguska event","startYear":1908,"lat":60.916666666,"lon":101.95,"category":"event","wikidataId":"Q125953","wikiTitle":"Tunguska event","notability":81},{"id":"q-h-Q132732","name":"Bratsk","startYear":1955,"lat":56.152,"lon":101.633,"category":"event","wikidataId":"Q132732","wikiTitle":"Bratsk","notability":77},{"id":"q-h-Q103565","name":"Angarsk","startYear":1948,"lat":52.566666666,"lon":103.916666666,"category":"event","wikidataId":"Q103565","wikiTitle":"Angarsk","notability":72},{"id":"q-h-Q156337","name":"Kyakhta","startYear":1727,"lat":50.35,"lon":106.45,"category":"event","wikidataId":"Q156337","wikiTitle":"Kyakhta","notability":58},{"id":"q-h-Q181550","name":"Slyudyanka","startYear":1899,"lat":51.659444444,"lon":103.706111111,"category":"event","wikidataId":"Q181550","wikiTitle":"Slyudyanka","notability":56},{"id":"q-h-Q196946","name":"Ust-Ilimsk","startYear":1966,"lat":58,"lon":102.666666666,"category":"event","wikidataId":"Q196946","wikiTitle":"Ust-Ilimsk","notability":51},{"id":"q-h-Q104367","name":"Baykalsk","startYear":1961,"lat":51.517222222,"lon":104.156111111,"category":"event","wikidataId":"Q104367","wikiTitle":"Baykalsk","notability":50},{"id":"q-h-Q196925","name":"Usolye-Sibirskoye","startYear":1669,"lat":52.75,"lon":103.65,"category":"event","wikidataId":"Q196925","wikiTitle":"Usolye-Sibirskoye","notability":48},{"id":"q-h-Q197942","name":"Cheremkhovo","startYear":1772,"lat":53.15,"lon":103.066666666,"category":"event","wikidataId":"Q197942","wikiTitle":"Cheremkhovo","notability":47},{"id":"q-h-Q105272","name":"Bodaybo","startYear":1864,"lat":57.850555555,"lon":114.193333333,"category":"event","wikidataId":"Q105272","wikiTitle":"Bodaybo","notability":46},{"id":"q-h-Q196964","name":"Ust-Kut","startYear":1631,"lat":56.8,"lon":105.833333333,"category":"event","wikidataId":"Q196964","wikiTitle":"Ust-Kut","notability":46},{"id":"q-h-Q41993","name":"Shelekhov","startYear":1953,"lat":52.2,"lon":104.1,"category":"event","wikidataId":"Q41993","wikiTitle":"Shelekhov","notability":44},{"id":"q-h-Q153412","name":"Kirensk","startYear":1630,"lat":57.783333333,"lon":108.1,"category":"event","wikidataId":"Q153412","wikiTitle":"Kirensk","notability":43},{"id":"q-h-Q196709","name":"Tulun","startYear":1735,"lat":54.566666666,"lon":100.566666666,"category":"event","wikidataId":"Q196709","wikiTitle":"Tulun","notability":43},{"id":"q-h-Q140012","name":"Zima","startYear":1743,"lat":53.916666666,"lon":102.05,"category":"event","wikidataId":"Q140012","wikiTitle":"Zima","notability":42},{"id":"q-h-Q193586","name":"Sajanshk","startYear":1970,"lat":54.116666666,"lon":102.166666666,"category":"event","wikidataId":"Q193586","wikiTitle":"Sajanshk","notability":40},{"id":"q-h-Q133099","name":"Vikhorevka","startYear":1947,"lat":56.116666666,"lon":101.166666666,"category":"event","wikidataId":"Q133099","wikiTitle":"Vikhorevka","notability":39},{"id":"q-h-Q46319","name":"Sükhbaatar","startYear":1940,"lat":50.236388888,"lon":106.206388888,"category":"city","wikidataId":"Q46319","wikiTitle":"Sükhbaatar","notability":38},{"id":"q-h-Q193631","name":"Svirsk","startYear":1735,"lat":53.083333333,"lon":103.333333333,"category":"event","wikidataId":"Q193631","wikiTitle":"Svirsk","notability":38},{"id":"q-h-Q135968","name":"Zheleznogorsk-Ilimsky","startYear":1948,"lat":56.583333333,"lon":104.116666666,"category":"event","wikidataId":"Q135968","wikiTitle":"Zheleznogorsk-Ilimsky","notability":37},{"id":"q-h-Q1676082","name":"Ivolginsky Datsan","startYear":1945,"lat":51.7591014,"lon":107.203238,"category":"event","wikidataId":"Q1676082","wikiTitle":"Ivolginsky Datsan","notability":23},{"id":"q-h-Q1275240","name":"Suntar","startYear":1764,"lat":62.1575,"lon":117.644166666,"category":"city","wikidataId":"Q1275240","wikiTitle":"Suntar","notability":22},{"id":"q-h-Q1369879","name":"Mir diamond mine","startYear":1957,"lat":62.525833333,"lon":113.984166666,"category":"event","wikidataId":"Q1369879","wikiTitle":"Mir diamond mine","notability":22},{"id":"q-h-Q4078100","name":"Barguzin","startYear":1648,"lat":53.617222222,"lon":109.634722222,"category":"city","wikidataId":"Q4078100","wikiTitle":"Barguzin","notability":22},{"id":"q-h-Q799866","name":"Bagdarin","startYear":1932,"lat":54.444444444,"lon":113.587222222,"category":"city","wikidataId":"Q799866","wikiTitle":"Bagdarin","notability":21},{"id":"q-h-Q147317","name":"Vanavara","startYear":1932,"lat":60.345277777,"lon":102.284166666,"category":"city","wikidataId":"Q147317","wikiTitle":"Vanavara","notability":21},{"id":"q-h-Q670649","name":"Irkutsk State University","startYear":1918,"lat":52.2767,"lon":104.278,"category":"event","wikidataId":"Q670649","wikiTitle":"Irkutsk State University","notability":21},{"id":"q-h-Q2620967","name":"Barguzin Nature Reserve","startYear":1917,"lat":54.2,"lon":109.45,"category":"event","wikidataId":"Q2620967","wikiTitle":"Barguzin Nature Reserve","notability":21},{"id":"q-h-Q1965517","name":"Bratsk Hydroelectric Power Station","startYear":1954,"lat":56.286111,"lon":101.786111,"category":"event","wikidataId":"Q1965517","wikiTitle":"Bratsk Hydroelectric Power Station","notability":20},{"id":"q-h-Q4182339","name":"Zabaykalsky","startYear":1986,"lat":53.716666666,"lon":109.216666666,"category":"event","wikidataId":"Q4182339","wikiTitle":"Zabaykalsky","notability":20},{"id":"q-h-Q749738","name":"Baikal Nature Reserve","startYear":1969,"lat":51.51,"lon":105.05,"category":"event","wikidataId":"Q749738","wikiTitle":"Baikal Nature Reserve","notability":19},{"id":"q-h-Q2047520","name":"Yerbogachen","startYear":1860,"lat":61.283333333,"lon":108.016666666,"category":"city","wikidataId":"Q2047520","wikiTitle":"Yerbogachen","notability":19},{"id":"q-h-Q2202322","name":"S7 Airlines Flight 778","startYear":2006,"lat":52.274819444,"lon":104.366586111,"category":"event","wikidataId":"Q2202322","wikiTitle":"S7 Airlines Flight 778","notability":19},{"id":"q-h-Q4220289","name":"Kizhinga","startYear":1915,"lat":51.846388888,"lon":109.912777777,"category":"city","wikidataId":"Q4220289","wikiTitle":"Kizhinga","notability":19},{"id":"q-h-Q1719561","name":"Kabansk","startYear":1678,"lat":52.041388888,"lon":106.653055555,"category":"city","wikidataId":"Q1719561","wikiTitle":"Kabansk","notability":18},{"id":"q-h-Q4429644","name":"Sosnovo-Ozerskoye","startYear":1882,"lat":52.516666666,"lon":111.533333333,"category":"city","wikidataId":"Q4429644","wikiTitle":"Sosnovo-Ozerskoye","notability":18},{"id":"q-h-Q878879","name":"Bichura","startYear":1767,"lat":50.5864,"lon":107.597472222,"category":"city","wikidataId":"Q878879","wikiTitle":"Bichura","notability":18},{"id":"q-h-Q2909217","name":"Verkh-Usugli","startYear":1936,"lat":52.683333333,"lon":115.183333333,"category":"city","wikidataId":"Q2909217","wikiTitle":"Verkh-Usugli","notability":17},{"id":"q-h-Q4317589","name":"Nerchinsky Zavod","startYear":1704,"lat":51.308333333,"lon":119.615833333,"category":"city","wikidataId":"Q4317589","wikiTitle":"Nerchinsky Zavod","notability":17},{"id":"q-h-Q4451925","name":"Tarbagatay","startYear":1710,"lat":51.480555555,"lon":107.359722222,"category":"city","wikidataId":"Q4451925","wikiTitle":"Tarbagatay","notability":17},{"id":"q-h-Q4308991","name":"Mukhorshibir","startYear":1720,"lat":51.047277777,"lon":107.823638888,"category":"city","wikidataId":"Q4308991","wikiTitle":"Mukhorshibir","notability":16},{"id":"q-h-Q904658","name":"Gazimursky Zavod","startYear":1774,"lat":51.544722222,"lon":118.342222222,"category":"city","wikidataId":"Q904658","wikiTitle":"Gazimursky Zavod","notability":15}]}