{"events":[{"id":"q-h-Q704257","name":"Albany","startYear":1826,"lat":-35.022777777,"lon":117.881388888,"category":"city","wikidataId":"Q704257","wikiTitle":"Albany","notability":48},{"id":"q-h-Q45935","name":"Perth Airport","startYear":1938,"lat":-31.94,"lon":115.965,"category":"event","wikidataId":"Q45935","wikiTitle":"Perth Airport","notability":42},{"id":"q-h-Q1517021","name":"University of Western Australia","startYear":1911,"lat":-31.980277777,"lon":115.818611111,"category":"event","wikidataId":"Q1517021","wikiTitle":"University of Western Australia","notability":41},{"id":"q-h-Q642631","name":"Busselton","startYear":1832,"lat":-33.647777777,"lon":115.345833333,"category":"city","wikidataId":"Q642631","wikiTitle":"Busselton","notability":30},{"id":"q-h-Q1145497","name":"Curtin University","startYear":1987,"lat":-32.0048589,"lon":115.8936669,"category":"event","wikidataId":"Q1145497","wikiTitle":"Curtin University","notability":27},{"id":"q-h-Q7170896","name":"Perth Stadium","startYear":2017,"lat":-31.9511,"lon":115.8891,"category":"event","wikidataId":"Q7170896","wikiTitle":"Perth Stadium","notability":21},{"id":"q-h-Q1375146","name":"Murdoch University","startYear":1973,"lat":-32.0675,"lon":115.83583333,"category":"event","wikidataId":"Q1375146","wikiTitle":"Murdoch University","notability":19},{"id":"q-h-Q2585611","name":"Central Park","startYear":1992,"lat":-31.953666666,"lon":115.855611111,"category":"event","wikidataId":"Q2585611","wikiTitle":"Central Park","notability":18},{"id":"q-h-Q1284960","name":"Edith Cowan University","startYear":1991,"lat":-31.925111111,"lon":115.792194444,"category":"event","wikidataId":"Q1284960","wikiTitle":"Edith Cowan University","notability":17},{"id":"q-h-Q1887921","name":"University of Notre Dame Australia","startYear":1989,"lat":-32.055917859,"lon":115.743380825,"category":"event","wikidataId":"Q1887921","wikiTitle":"University of Notre Dame Australia","notability":16},{"id":"q-h-Q2738971","name":"WACA Ground","startYear":1890,"lat":-31.95985,"lon":115.8795,"category":"event","wikidataId":"Q2738971","wikiTitle":"WACA Ground","notability":16},{"id":"q-h-Q1765461","name":"1997 UCI Track Cycling World Championships","startYear":1997,"lat":-31.9558,"lon":115.8597,"category":"event","wikidataId":"Q1765461","wikiTitle":"1997 UCI Track Cycling World Championships","notability":15},{"id":"q-h-Q585927","name":"Subiaco Oval","startYear":1907,"lat":-31.944444,"lon":115.82982,"category":"event","wikidataId":"Q585927","wikiTitle":"Subiaco Oval","notability":14},{"id":"q-h-Q2035401","name":"Perth Arena","startYear":2012,"lat":-31.948333333,"lon":115.851944444,"category":"event","wikidataId":"Q2035401","wikiTitle":"Perth Arena","notability":14},{"id":"q-h-Q3089169","name":"Fremantle Prison","startYear":1855,"lat":-32.0550144,"lon":115.7534872,"category":"monument","wikidataId":"Q3089169","wikiTitle":"Fremantle Prison","notability":14},{"id":"q-h-Q14634130","name":"2014 Hopman Cup","startYear":2014,"lat":-31.9483,"lon":115.8519,"category":"event","wikidataId":"Q14634130","wikiTitle":"2014 Hopman Cup","notability":14},{"id":"q-h-Q26707608","name":"2017 Hopman Cup","startYear":2017,"lat":-31.9483,"lon":115.8519,"category":"event","wikidataId":"Q26707608","wikiTitle":"2017 Hopman Cup","notability":14},{"id":"q-h-Q724897","name":"2013 Hopman Cup","startYear":2013,"lat":-31.9483,"lon":115.8519,"category":"event","wikidataId":"Q724897","wikiTitle":"2013 Hopman Cup","notability":13},{"id":"q-h-Q1508417","name":"2012 Hopman Cup","startYear":2012,"lat":-31.9608,"lon":115.8956,"category":"event","wikidataId":"Q1508417","wikiTitle":"2012 Hopman Cup","notability":13},{"id":"q-h-Q1577415","name":"2011 Hopman Cup","startYear":2011,"lat":-31.9608,"lon":115.8956,"category":"event","wikidataId":"Q1577415","wikiTitle":"2011 Hopman Cup","notability":13},{"id":"q-h-Q21152156","name":"2016 Hopman Cup","startYear":2016,"lat":-31.9483,"lon":115.8519,"category":"event","wikidataId":"Q21152156","wikiTitle":"2016 Hopman Cup","notability":13},{"id":"q-h-Q3495894","name":"Kings Park","startYear":1890,"lat":-31.962134954,"lon":115.831712083,"category":"event","wikidataId":"Q3495894","wikiTitle":"Kings Park","notability":12},{"id":"q-h-Q36698296","name":"2018 Hopman Cup","startYear":2018,"lat":-31.9483,"lon":115.8519,"category":"event","wikidataId":"Q36698296","wikiTitle":"2018 Hopman Cup","notability":12},{"id":"q-h-Q55388745","name":"2019 Hopman Cup","startYear":2019,"lat":-31.9483,"lon":115.8519,"category":"event","wikidataId":"Q55388745","wikiTitle":"2019 Hopman Cup","notability":12}]}