{"events":[{"id":"q-h-Q866012","name":"University of Queensland","startYear":1909,"lat":-27.497222222,"lon":153.013055555,"category":"event","wikidataId":"Q866012","wikiTitle":"University of Queensland","notability":46},{"id":"q-h-Q125846","name":"Q1 Tower","startYear":2005,"lat":-28.006111111,"lon":153.429444444,"category":"event","wikidataId":"Q125846","wikiTitle":"Q1 Tower","notability":42},{"id":"q-h-Q45523","name":"Brisbane Airport","startYear":1988,"lat":-27.383333333,"lon":153.118333333,"category":"event","wikidataId":"Q45523","wikiTitle":"Brisbane Airport","notability":40},{"id":"q-h-Q377975","name":"Maryborough","startYear":1847,"lat":-25.5375,"lon":152.701944444,"category":"city","wikidataId":"Q377975","wikiTitle":"Maryborough","notability":37},{"id":"q-h-Q3294383","name":"2018 Commonwealth Games","startYear":2018,"lat":-28.0064,"lon":153.367,"category":"event","wikidataId":"Q3294383","wikiTitle":"2018 Commonwealth Games","notability":32},{"id":"q-h-Q643328","name":"Lang Park","startYear":1911,"lat":-27.464722222,"lon":153.009444444,"category":"event","wikidataId":"Q643328","wikiTitle":"Lang Park","notability":30},{"id":"q-h-Q1009253","name":"Ipswich","startYear":1846,"lat":-27.616666666,"lon":152.766666666,"category":"city","wikidataId":"Q1009253","wikiTitle":"Ipswich","notability":29},{"id":"q-h-Q264806","name":"Brisbane International","startYear":1888,"lat":-27.525,"lon":153.007222,"category":"event","wikidataId":"Q264806","wikiTitle":"Brisbane International","notability":27},{"id":"q-h-Q288116","name":"1998 OFC Nations Cup","startYear":1998,"lat":-27.4647,"lon":153.009,"category":"event","wikidataId":"Q288116","wikiTitle":"1998 OFC Nations Cup","notability":27},{"id":"q-h-Q1020734","name":"Cooktown","startYear":1873,"lat":-15.468333333,"lon":145.250277777,"category":"city","wikidataId":"Q1020734","wikiTitle":"Cooktown","notability":27},{"id":"q-h-Q1175431","name":"Gold Coast Airport","startYear":1939,"lat":-28.165,"lon":153.5011111,"category":"event","wikidataId":"Q1175431","wikiTitle":"Gold Coast Airport","notability":27},{"id":"q-h-Q606344","name":"Tweed Heads","startYear":1844,"lat":-28.1833,"lon":153.55,"category":"city","wikidataId":"Q606344","wikiTitle":"Tweed Heads","notability":25},{"id":"q-h-Q837833","name":"2010–2011 Queensland floods","startYear":2011,"lat":-27.5833,"lon":152.2,"category":"event","wikidataId":"Q837833","wikiTitle":"2010–2011 Queensland floods","notability":23},{"id":"q-h-Q1343166","name":"Nambour","startYear":1870,"lat":-26.626944444,"lon":152.959166666,"category":"city","wikidataId":"Q1343166","wikiTitle":"Nambour","notability":23},{"id":"q-h-Q1144750","name":"Queensland University of Technology","startYear":1908,"lat":-27.476944444,"lon":153.028055555,"category":"event","wikidataId":"Q1144750","wikiTitle":"Queensland University of Technology","notability":22},{"id":"q-h-Q1226474","name":"Dingo Fence","startYear":1880,"lat":-28.99889,"lon":141.00056,"category":"event","wikidataId":"Q1226474","wikiTitle":"Dingo Fence","notability":22},{"id":"q-h-Q536512","name":"James Cook University","startYear":1970,"lat":-19.328,"lon":146.757,"category":"event","wikidataId":"Q536512","wikiTitle":"James Cook University","notability":20},{"id":"q-h-Q781321","name":"Australia Zoo","startYear":1970,"lat":-26.8366,"lon":152.9595,"category":"event","wikidataId":"Q781321","wikiTitle":"Australia Zoo","notability":20},{"id":"q-h-Q892188","name":"Bond University","startYear":1987,"lat":-28.074,"lon":153.416,"category":"event","wikidataId":"Q892188","wikiTitle":"Bond University","notability":20},{"id":"q-h-Q1202292","name":"Griffith University","startYear":1971,"lat":-27.5526,"lon":153.0539,"category":"event","wikidataId":"Q1202292","wikiTitle":"Griffith University","notability":20},{"id":"q-h-Q781371","name":"Australian Catholic University","startYear":1991,"lat":-27.378,"lon":153.089,"category":"event","wikidataId":"Q781371","wikiTitle":"Australian Catholic University","notability":19},{"id":"q-h-Q1053985","name":"Central Queensland University","startYear":1992,"lat":-23.318055555,"lon":150.518333333,"category":"event","wikidataId":"Q1053985","wikiTitle":"Central Queensland University","notability":19},{"id":"q-h-Q2558550","name":"Proserpine","startYear":1880,"lat":-20.404166666,"lon":148.583333333,"category":"city","wikidataId":"Q2558550","wikiTitle":"Proserpine","notability":19},{"id":"q-h-Q1278780","name":"Southern Cross University","startYear":1994,"lat":-28.81791,"lon":153.30048,"category":"event","wikidataId":"Q1278780","wikiTitle":"Southern Cross University","notability":17},{"id":"q-h-Q1947589","name":"Moreton Bay","startYear":1993,"lat":-27.25,"lon":153.25,"category":"event","wikidataId":"Q1947589","wikiTitle":"Moreton Bay","notability":17},{"id":"q-h-Q451609","name":"Kuranda","startYear":1888,"lat":-16.816666666,"lon":145.633333333,"category":"city","wikidataId":"Q451609","wikiTitle":"Kuranda","notability":16},{"id":"q-h-Q1116438","name":"1982 Commonwealth Games","startYear":1982,"lat":-27.5583,"lon":153.062,"category":"event","wikidataId":"Q1116438","wikiTitle":"1982 Commonwealth Games","notability":16},{"id":"q-h-Q903231","name":"Sunshine Coast Airport","startYear":1959,"lat":-26.603333333,"lon":153.091666666,"category":"event","wikidataId":"Q903231","wikiTitle":"Sunshine Coast Airport","notability":15},{"id":"q-h-Q1005913","name":"Cardwell","startYear":1864,"lat":-18.266666666,"lon":146.033333333,"category":"city","wikidataId":"Q1005913","wikiTitle":"Cardwell","notability":15},{"id":"q-h-Q917681","name":"City Botanic Gardens","startYear":1855,"lat":-27.4747,"lon":153.03,"category":"event","wikidataId":"Q917681","wikiTitle":"City Botanic Gardens","notability":14},{"id":"q-h-Q1431430","name":"Great Barrier Reef Airport","startYear":1980,"lat":-20.358055555,"lon":148.951666666,"category":"event","wikidataId":"Q1431430","wikiTitle":"Great Barrier Reef Airport","notability":14},{"id":"q-h-Q124376633","name":"2025 Brisbane International","startYear":2025,"lat":-27.525271369,"lon":153.007072,"category":"event","wikidataId":"Q124376633","wikiTitle":"2025 Brisbane International","notability":14},{"id":"q-h-Q641873","name":"Lone Pine Koala Sanctuary","startYear":1927,"lat":-27.5329,"lon":152.969,"category":"event","wikidataId":"Q641873","wikiTitle":"Lone Pine Koala Sanctuary","notability":13},{"id":"q-h-Q917712","name":"2010 Brisbane International","startYear":2010,"lat":-27.525,"lon":153.007,"category":"event","wikidataId":"Q917712","wikiTitle":"2010 Brisbane International","notability":13},{"id":"q-h-Q4302346","name":"Moranbah","startYear":1969,"lat":-22.000277777,"lon":148.048888888,"category":"city","wikidataId":"Q4302346","wikiTitle":"Moranbah","notability":13},{"id":"q-h-Q15077275","name":"2014 Brisbane International","startYear":2014,"lat":-27.525,"lon":153.007,"category":"event","wikidataId":"Q15077275","wikiTitle":"2014 Brisbane International","notability":13},{"id":"q-h-Q674874","name":"2012 Brisbane International","startYear":2012,"lat":-27.525,"lon":153.007,"category":"event","wikidataId":"Q674874","wikiTitle":"2012 Brisbane International","notability":12},{"id":"q-h-Q693648","name":"2011 Brisbane International","startYear":2011,"lat":-27.525,"lon":153.007,"category":"event","wikidataId":"Q693648","wikiTitle":"2011 Brisbane International","notability":12},{"id":"q-h-Q978124","name":"University of Southern Queensland","startYear":1967,"lat":-27.6042,"lon":151.932,"category":"event","wikidataId":"Q978124","wikiTitle":"University of Southern Queensland","notability":12},{"id":"q-h-Q1417567","name":"Warner Bros. Movie World","startYear":1991,"lat":-27.9075,"lon":153.3125,"category":"event","wikidataId":"Q1417567","wikiTitle":"Warner Bros. Movie World","notability":12},{"id":"q-h-Q2050653","name":"State Library of Queensland","startYear":2006,"lat":-27.471191,"lon":153.018104,"category":"event","wikidataId":"Q2050653","wikiTitle":"State Library of Queensland","notability":12},{"id":"q-h-Q2714516","name":"World Expo 88","startYear":1988,"lat":-27.4766,"lon":153.022,"category":"event","wikidataId":"Q2714516","wikiTitle":"World Expo 88","notability":12},{"id":"q-h-Q15635028","name":"Brisbane Roar FC","startYear":2008,"lat":-27.441944444,"lon":153.017777777,"category":"event","wikidataId":"Q15635028","wikiTitle":"Brisbane Roar FC","notability":12},{"id":"q-h-Q58880596","name":"2019 Brisbane International","startYear":2019,"lat":-27.5225,"lon":153.009722222,"category":"event","wikidataId":"Q58880596","wikiTitle":"2019 Brisbane International","notability":12}]}