{"events":[{"id":"q-h-Q105116","name":"Bilibino","startYear":1955,"lat":68.05,"lon":166.45,"category":"event","wikidataId":"Q105116","wikiTitle":"Bilibino","notability":52},{"id":"q-h-Q135502884","name":"2025 Kamchatka earthquake","startYear":2025,"lat":52.51,"lon":160.261,"category":"event","wikidataId":"Q135502884","wikiTitle":"2025 Kamchatka earthquake","notability":45},{"id":"q-h-Q1321636","name":"Nikolskoye, Kamchatka Krai","startYear":1826,"lat":55.1975,"lon":165.9975,"category":"city","wikidataId":"Q1321636","wikiTitle":"Nikolskoye, Kamchatka Krai","notability":28},{"id":"q-h-Q1789960","name":"Kronotsky Nature Reserve","startYear":1934,"lat":54.58,"lon":160.72,"category":"event","wikidataId":"Q1789960","wikiTitle":"Kronotsky Nature Reserve","notability":22},{"id":"q-h-Q2033079","name":"Operation Cottage","startYear":1943,"lat":51.96,"lon":177.43,"category":"event","wikidataId":"Q2033079","wikiTitle":"Operation Cottage","notability":20},{"id":"q-h-Q2099296","name":"Pleistocene Park","startYear":1996,"lat":68.513333333,"lon":161.525555555,"category":"event","wikidataId":"Q2099296","wikiTitle":"Pleistocene Park","notability":20},{"id":"q-h-Q548819","name":"Battle of the Komandorski Islands","startYear":1943,"lat":53.098611111,"lon":168.212777777,"category":"event","wikidataId":"Q548819","wikiTitle":"Battle of the Komandorski Islands","notability":19},{"id":"q-h-Q3661284","name":"1952 Severo-Kurilsk tsunami","startYear":1952,"lat":52.3,"lon":161,"category":"event","wikidataId":"Q3661284","wikiTitle":"1952 Severo-Kurilsk tsunami","notability":18},{"id":"q-h-Q1002621","name":"Tilichiki","startYear":1898,"lat":60.433333333,"lon":166.048611111,"category":"city","wikidataId":"Q1002621","wikiTitle":"Tilichiki","notability":17},{"id":"q-h-Q984829","name":"Kamenskoye, Kamchatka Krai","startYear":1931,"lat":62.468725,"lon":166.207327777,"category":"city","wikidataId":"Q984829","wikiTitle":"Kamenskoye, Kamchatka Krai","notability":16},{"id":"q-h-Q4229211","name":"Komandorsky Zapovednik","startYear":1993,"lat":54.76,"lon":166.48,"category":"event","wikidataId":"Q4229211","wikiTitle":"Komandorsky Zapovednik","notability":16},{"id":"q-h-Q1210332","name":"Korf","startYear":1925,"lat":60.373055555,"lon":166.020555555,"category":"city","wikidataId":"Q1210332","wikiTitle":"Korf","notability":13},{"id":"q-h-Q2629730","name":"Ambarchik","startYear":1740,"lat":69.616666666,"lon":162.283333333,"category":"city","wikidataId":"Q2629730","wikiTitle":"Ambarchik","notability":13},{"id":"q-h-Q3741394","name":"Omolon","startYear":1944,"lat":65.233138888,"lon":160.537027777,"category":"city","wikidataId":"Q3741394","wikiTitle":"Omolon","notability":13},{"id":"q-h-Q748868","name":"Ayon","startYear":1940,"lat":69.936666666,"lon":167.994444444,"category":"city","wikidataId":"Q748868","wikiTitle":"Ayon","notability":12},{"id":"q-h-Q1146513","name":"solar eclipse of July 22, 1990","startYear":1990,"lat":65.17166667,"lon":168.83,"category":"event","wikidataId":"Q1146513","wikiTitle":"solar eclipse of July 22, 1990","notability":12},{"id":"q-h-Q1973987","name":"Gizhiga","startYear":1752,"lat":61.948055555,"lon":160.3775,"category":"city","wikidataId":"Q1973987","wikiTitle":"Gizhiga","notability":12},{"id":"q-h-Q3849656","name":"Markovo","startYear":1649,"lat":64.680555555,"lon":170.412777777,"category":"city","wikidataId":"Q3849656","wikiTitle":"Markovo","notability":12},{"id":"q-h-Q4234716","name":"Koryak Nature Reserve","startYear":1995,"lat":59.807869444,"lon":166.195775,"category":"event","wikidataId":"Q4234716","wikiTitle":"Koryak Nature Reserve","notability":12},{"id":"q-h-Q62097160","name":"Kamchatka meteor","startYear":2018,"lat":56.9,"lon":172.4,"category":"event","wikidataId":"Q62097160","wikiTitle":"Kamchatka meteor","notability":12}]}