{"events":[{"id":"q-h-Q214173","name":"Trujillo","startYear":1535,"lat":-8.111944444,"lon":-79.028888888,"category":"event","wikidataId":"Q214173","wikiTitle":"Trujillo","notability":92},{"id":"q-h-Q222755","name":"Ibagué","startYear":1550,"lat":4.437777777,"lon":-75.200555555,"category":"city","wikidataId":"Q222755","wikiTitle":"Ibagué","notability":65},{"id":"q-h-Q1035332","name":"Caracol Televisión","startYear":1969,"lat":4.693888888,"lon":-74.074166666,"category":"event","wikidataId":"Q1035332","wikiTitle":"Caracol Televisión","notability":65},{"id":"q-h-Q478675","name":"Riobamba","startYear":1534,"lat":-1.673055555,"lon":-78.648333333,"category":"city","wikidataId":"Q478675","wikiTitle":"Riobamba","notability":61},{"id":"q-h-Q26906","name":"Ciudad Bolívar","startYear":1764,"lat":8.1028532,"lon":-63.5469562,"category":"city","wikidataId":"Q26906","wikiTitle":"Ciudad Bolívar","notability":60},{"id":"q-h-Q214913","name":"Leticia","startYear":1867,"lat":-4.215,"lon":-69.941111111,"category":"event","wikidataId":"Q214913","wikiTitle":"Leticia","notability":59},{"id":"q-h-Q210161","name":"Ambato","startYear":1698,"lat":-1.242222222,"lon":-78.628888888,"category":"city","wikidataId":"Q210161","wikiTitle":"Ambato","notability":55},{"id":"q-h-Q215080","name":"Machala","startYear":1573,"lat":-3.266666666,"lon":-79.966666666,"category":"city","wikidataId":"Q215080","wikiTitle":"Machala","notability":55},{"id":"q-h-Q12825018","name":"Colón City","startYear":1850,"lat":9.359752777,"lon":-79.900419444,"category":"city","wikidataId":"Q12825018","wikiTitle":"Colón City","notability":55},{"id":"q-h-Q842779","name":"Maturín","startYear":1760,"lat":9.7422774,"lon":-63.1888854,"category":"city","wikidataId":"Q842779","wikiTitle":"Maturín","notability":55},{"id":"q-h-Q507080","name":"Ciudad Guayana","startYear":1961,"lat":8.3223763,"lon":-62.6896622,"category":"city","wikidataId":"Q507080","wikiTitle":"Ciudad Guayana","notability":54},{"id":"q-h-Q695623","name":"Barinas","startYear":1577,"lat":8.633333333,"lon":-70.216666666,"category":"city","wikidataId":"Q695623","wikiTitle":"Barinas","notability":53},{"id":"q-h-Q820235","name":"San Cristóbal","startYear":1561,"lat":7.768172222,"lon":-72.232241666,"category":"city","wikidataId":"Q820235","wikiTitle":"San Cristóbal","notability":53},{"id":"q-h-Q217071","name":"Pucallpa","startYear":1888,"lat":-8.383333333,"lon":-74.55,"category":"city","wikidataId":"Q217071","wikiTitle":"Pucallpa","notability":52},{"id":"q-h-Q793809","name":"Huaraz","startYear":1574,"lat":-9.533333333,"lon":-77.533333333,"category":"city","wikidataId":"Q793809","wikiTitle":"Huaraz","notability":52},{"id":"q-h-Q372920","name":"Puerto Ayacucho","startYear":1924,"lat":5.663055555,"lon":-67.626388888,"category":"city","wikidataId":"Q372920","wikiTitle":"Puerto Ayacucho","notability":50},{"id":"q-h-Q944697","name":"Loja","startYear":1548,"lat":-3.990555555,"lon":-79.205,"category":"city","wikidataId":"Q944697","wikiTitle":"Loja","notability":49},{"id":"q-h-Q641527","name":"Arena Amazônia","startYear":2014,"lat":-3.083056,"lon":-60.028056,"category":"event","wikidataId":"Q641527","wikiTitle":"Arena Amazônia","notability":48},{"id":"q-h-Q149955","name":"Esmeraldas","startYear":1526,"lat":0.95,"lon":-79.666666666,"category":"city","wikidataId":"Q149955","wikiTitle":"Esmeraldas","notability":47},{"id":"q-h-Q504394","name":"Huánuco","startYear":1539,"lat":-9.929444444,"lon":-76.239722222,"category":"city","wikidataId":"Q504394","wikiTitle":"Huánuco","notability":47},{"id":"q-h-Q518431","name":"Chimbote","startYear":1835,"lat":-9.074544444,"lon":-78.593572222,"category":"city","wikidataId":"Q518431","wikiTitle":"Chimbote","notability":47},{"id":"q-h-Q946384","name":"Ibarra","startYear":1606,"lat":0.362778,"lon":-78.13,"category":"city","wikidataId":"Q946384","wikiTitle":"Ibarra","notability":46},{"id":"q-h-Q332605","name":"Atlético Nacional","startYear":1947,"lat":6.253611111,"lon":-75.594444444,"category":"event","wikidataId":"Q332605","wikiTitle":"Atlético Nacional","notability":45},{"id":"q-h-Q379338","name":"Latacunga","startYear":1584,"lat":-0.933333333,"lon":-78.616666666,"category":"city","wikidataId":"Q379338","wikiTitle":"Latacunga","notability":44},{"id":"q-h-Q383272","name":"2007 Copa América","startYear":2007,"lat":8.6243,"lon":-70.2073,"category":"event","wikidataId":"Q383272","wikiTitle":"2007 Copa América","notability":42},{"id":"q-h-Q130304","name":"Puerto Carreño","startYear":1930,"lat":6.190312097,"lon":-67.483741715,"category":"city","wikidataId":"Q130304","wikiTitle":"Puerto Carreño","notability":41},{"id":"q-h-Q285672","name":"Moyobamba","startYear":1540,"lat":-6.033333333,"lon":-76.966666666,"category":"city","wikidataId":"Q285672","wikiTitle":"Moyobamba","notability":40},{"id":"q-h-Q752113","name":"Tulcán","startYear":1535,"lat":0.811666666,"lon":-77.718611111,"category":"city","wikidataId":"Q752113","wikiTitle":"Tulcán","notability":40},{"id":"q-h-Q27925924","name":"LaMia Flight 2933","startYear":2016,"lat":5.978766666,"lon":-75.41885,"category":"event","wikidataId":"Q27925924","wikiTitle":"LaMia Flight 2933","notability":40}]}