{"events":[{"id":"q-h-Q117040","name":"Santiago de Cuba","startYear":1514,"lat":20.021666666,"lon":-75.829444444,"category":"city","wikidataId":"Q117040","wikiTitle":"Santiago de Cuba","notability":89},{"id":"q-h-Q185156","name":"Guantánamo","startYear":1510,"lat":20.138333,"lon":-75.206111,"category":"city","wikidataId":"Q185156","wikiTitle":"Guantánamo","notability":75},{"id":"q-h-Q34205","name":"Cockburn Town","startYear":1681,"lat":21.460277777,"lon":-71.141388888,"category":"city","wikidataId":"Q34205","wikiTitle":"Cockburn Town","notability":74},{"id":"q-h-Q211590","name":"Santa Clara","startYear":1689,"lat":22.406666666,"lon":-79.953055555,"category":"city","wikidataId":"Q211590","wikiTitle":"Santa Clara","notability":69},{"id":"q-h-Q34112","name":"Gustavia","startYear":1785,"lat":17.898611111,"lon":-62.849166666,"category":"event","wikidataId":"Q34112","wikiTitle":"Gustavia","notability":68},{"id":"q-h-Q357","name":"Guantanamo Bay detention camp","startYear":2002,"lat":19.9025,"lon":-75.1,"category":"event","wikidataId":"Q357","wikiTitle":"Guantanamo Bay detention camp","notability":64},{"id":"q-h-Q244154","name":"Holguin","startYear":1523,"lat":20.887222222,"lon":-76.263055555,"category":"city","wikidataId":"Q244154","wikiTitle":"Holguin","notability":62},{"id":"q-h-Q331584","name":"Kralendijk","startYear":1837,"lat":12.150833333,"lon":-68.276666666,"category":"city","wikidataId":"Q331584","wikiTitle":"Kralendijk","notability":62},{"id":"q-h-Q376903","name":"Valledupar","startYear":1550,"lat":10.460277777,"lon":-73.259722222,"category":"city","wikidataId":"Q376903","wikiTitle":"Valledupar","notability":60},{"id":"q-h-Q333928","name":"Maracay","startYear":1701,"lat":10.246944444,"lon":-67.595833333,"category":"city","wikidataId":"Q333928","wikiTitle":"Maracay","notability":58},{"id":"q-h-Q1134454","name":"Coro","startYear":1527,"lat":11.395,"lon":-69.681583333,"category":"city","wikidataId":"Q1134454","wikiTitle":"Coro","notability":58},{"id":"q-h-Q845720","name":"Sancti Spíritus","startYear":1514,"lat":21.933888888,"lon":-79.443888888,"category":"city","wikidataId":"Q845720","wikiTitle":"Sancti Spíritus","notability":56},{"id":"q-h-Q637555","name":"Montego Bay","startYear":1980,"lat":18.466666666,"lon":-77.916666666,"category":"city","wikidataId":"Q637555","wikiTitle":"Montego Bay","notability":56},{"id":"q-h-Q42763","name":"Santiago de los Caballeros","startYear":1495,"lat":19.45,"lon":-70.7,"category":"city","wikidataId":"Q42763","wikiTitle":"Santiago de los Caballeros","notability":54},{"id":"q-h-Q216835","name":"Cap-Haïtien","startYear":1670,"lat":19.75,"lon":-72.2,"category":"city","wikidataId":"Q216835","wikiTitle":"Cap-Haïtien","notability":51},{"id":"q-h-Q319476","name":"Cumaná","startYear":1502,"lat":10.45,"lon":-64.166666666,"category":"city","wikidataId":"Q319476","wikiTitle":"Cumaná","notability":51},{"id":"q-h-Q864024","name":"Ponce","startYear":1692,"lat":18.010833333,"lon":-66.613611111,"category":"city","wikidataId":"Q864024","wikiTitle":"Ponce","notability":48},{"id":"q-h-Q221474","name":"first arrival of Christopher Columbus to America","startYear":1492,"lat":23.733333333,"lon":-75.366666666,"category":"event","wikidataId":"Q221474","wikiTitle":"first arrival of Christopher Columbus to America","notability":48},{"id":"q-h-Q115382","name":"Bayamo","startYear":1513,"lat":20.381666666,"lon":-76.642777777,"category":"city","wikidataId":"Q115382","wikiTitle":"Bayamo","notability":47},{"id":"q-h-Q873405","name":"La Guaira","startYear":1589,"lat":10.6,"lon":-66.933055555,"category":"city","wikidataId":"Q873405","wikiTitle":"La Guaira","notability":47}]}