{"events":[{"id":"q-h-Q160011","name":"Battle of the Falkland Islands","startYear":1914,"lat":-52.499444444,"lon":-56.166388888,"category":"event","wikidataId":"Q160011","wikiTitle":"Battle of the Falkland Islands","notability":39},{"id":"q-h-Q1368174","name":"Esperanza Base","startYear":1953,"lat":-63.396959,"lon":-56.998054,"category":"event","wikidataId":"Q1368174","wikiTitle":"Esperanza Base","notability":35},{"id":"q-h-Q815995","name":"Bellingshausen Station","startYear":1968,"lat":-62.198055555,"lon":-58.960555555,"category":"event","wikidataId":"Q815995","wikiTitle":"Bellingshausen Station","notability":30},{"id":"q-h-Q2745332","name":"Villa Las Estrellas","startYear":1984,"lat":-62.2002,"lon":-58.9641,"category":"city","wikidataId":"Q2745332","wikiTitle":"Villa Las Estrellas","notability":29},{"id":"q-h-Q1440159","name":"Orcadas Station","startYear":1903,"lat":-60.7403,"lon":-44.7425,"category":"event","wikidataId":"Q1440159","wikiTitle":"Orcadas Station","notability":27},{"id":"q-h-Q683143","name":"Comandante Ferraz Antarctic Station","startYear":2007,"lat":-62.084722,"lon":-58.3925,"category":"event","wikidataId":"Q683143","wikiTitle":"Comandante Ferraz Antarctic Station","notability":25},{"id":"q-h-Q2318477","name":"Base General Bernardo O'Higgins Riquelme","startYear":1948,"lat":-63.320951,"lon":-57.899781,"category":"event","wikidataId":"Q2318477","wikiTitle":"Base General Bernardo O'Higgins Riquelme","notability":24},{"id":"q-h-Q1537762","name":"Goose Green","startYear":1875,"lat":-51.828833333,"lon":-58.969166666,"category":"city","wikidataId":"Q1537762","wikiTitle":"Goose Green","notability":21},{"id":"q-h-Q123524723","name":"A23a","startYear":1986,"lat":-63.025,"lon":-51.526,"category":"event","wikidataId":"Q123524723","wikiTitle":"A23a","notability":21},{"id":"q-h-Q141493","name":"Marambio Station","startYear":1969,"lat":-64.241769,"lon":-56.623225,"category":"event","wikidataId":"Q141493","wikiTitle":"Marambio Station","notability":20},{"id":"q-h-Q1754464","name":"Port Howard","startYear":1866,"lat":-51.617361,"lon":-59.521917,"category":"city","wikidataId":"Q1754464","wikiTitle":"Port Howard","notability":20},{"id":"q-h-Q1710747","name":"Carlini Station","startYear":1953,"lat":-62.237572222,"lon":-58.667455555,"category":"event","wikidataId":"Q1710747","wikiTitle":"Carlini Station","notability":19},{"id":"q-h-Q743379","name":"J.G. Mendel Czech Antarctic Station","startYear":2006,"lat":-63.800625,"lon":-57.882592,"category":"event","wikidataId":"Q743379","wikiTitle":"J.G. Mendel Czech Antarctic Station","notability":16},{"id":"q-h-Q4073701","name":"Teniente R. Marsh Airport","startYear":1980,"lat":-62.191111111,"lon":-58.986111111,"category":"event","wikidataId":"Q4073701","wikiTitle":"Teniente R. Marsh Airport","notability":15},{"id":"q-h-Q2886434","name":"Machu Picchu Base","startYear":1945,"lat":-62.09159252,"lon":-58.47055896,"category":"event","wikidataId":"Q2886434","wikiTitle":"Machu Picchu Base","notability":14}]}