{"events":[{"id":"q-h-Q923610","name":"Pontifícia Universidade Católica de Minas Gerais","startYear":1958,"lat":-19.9236829,"lon":-43.9907332,"category":"event","wikidataId":"Q923610","wikiTitle":"Pontifícia Universidade Católica de Minas Gerais","notability":96},{"id":"q-h-Q155174","name":"Maracanã Stadium","startYear":1950,"lat":-22.912166666,"lon":-43.230163888,"category":"event","wikidataId":"Q155174","wikiTitle":"Maracanã Stadium","notability":88},{"id":"q-h-Q168929","name":"Campo Grande","startYear":1899,"lat":-20.442777777,"lon":-54.645833333,"category":"city","wikidataId":"Q168929","wikiTitle":"Campo Grande","notability":85},{"id":"q-h-Q7894375","name":"Universidade Federal de Goiás","startYear":1960,"lat":-16.604916666,"lon":-49.261138888,"category":"event","wikidataId":"Q7894375","wikiTitle":"Universidade Federal de Goiás","notability":82},{"id":"q-h-Q41068","name":"Paulista Avenue","startYear":1891,"lat":-23.561388888,"lon":-46.656388888,"category":"event","wikidataId":"Q41068","wikiTitle":"Paulista Avenue","notability":75},{"id":"q-h-Q42258","name":"Mirante do Vale","startYear":1960,"lat":-23.5422,"lon":-46.635422,"category":"event","wikidataId":"Q42258","wikiTitle":"Mirante do Vale","notability":71},{"id":"q-h-Q82941","name":"São Paulo Museum of Art","startYear":1947,"lat":-23.561111111,"lon":-46.655833333,"category":"event","wikidataId":"Q82941","wikiTitle":"São Paulo Museum of Art","notability":65},{"id":"q-h-Q483343","name":"São Paulo Metrô","startYear":1974,"lat":-23.550394444,"lon":-46.633947222,"category":"event","wikidataId":"Q483343","wikiTitle":"São Paulo Metrô","notability":61},{"id":"q-h-Q44214","name":"Formosa","startYear":1879,"lat":-26.184722222,"lon":-58.175833333,"category":"city","wikidataId":"Q44214","wikiTitle":"Formosa","notability":59},{"id":"q-h-Q80958","name":"Botafogo F.R.","startYear":1904,"lat":-22.95456749,"lon":-43.177563068,"category":"event","wikidataId":"Q80958","wikiTitle":"Botafogo F.R.","notability":59},{"id":"q-h-Q221695","name":"Grêmio FBPA","startYear":1903,"lat":-29.9740266,"lon":-51.1949496,"category":"event","wikidataId":"Q221695","wikiTitle":"Grêmio FBPA","notability":59},{"id":"q-h-Q47138","name":"Encarnación","startYear":1615,"lat":-27.333333333,"lon":-55.866666666,"category":"city","wikidataId":"Q47138","wikiTitle":"Encarnación","notability":57},{"id":"q-h-Q244169","name":"Itaipu Dam","startYear":1970,"lat":-25.407777777,"lon":-54.59,"category":"event","wikidataId":"Q244169","wikiTitle":"Itaipu Dam","notability":57},{"id":"q-h-Q910370","name":"Mineirão","startYear":1965,"lat":-19.865833,"lon":-43.970833,"category":"event","wikidataId":"Q910370","wikiTitle":"Mineirão","notability":57},{"id":"q-h-Q1362236","name":"Neo Química Arena","startYear":2011,"lat":-23.545555555,"lon":-46.474,"category":"event","wikidataId":"Q1362236","wikiTitle":"Neo Química Arena","notability":54},{"id":"q-h-Q1327235","name":"Estádio Couto Pereira","startYear":1932,"lat":-25.421111,"lon":-49.2595,"category":"event","wikidataId":"Q1327235","wikiTitle":"Estádio Couto Pereira","notability":51},{"id":"q-h-Q169420","name":"Edifício Altino Arantes","startYear":1939,"lat":-23.545675,"lon":-46.6341,"category":"event","wikidataId":"Q169420","wikiTitle":"Edifício Altino Arantes","notability":50}]}