{"events":[{"id":"q-h-Q3751","name":"Praia","startYear":1858,"lat":14.917719444,"lon":-23.509155555,"category":"city","wikidataId":"Q3751","wikiTitle":"Praia","notability":157},{"id":"q-h-Q464913","name":"Cidade Velha","startYear":1462,"lat":14.916666666,"lon":-23.604166666,"category":"city","wikidataId":"Q464913","wikiTitle":"Cidade Velha","notability":53},{"id":"q-h-Q482315","name":"Amílcar Cabral International Airport","startYear":1939,"lat":16.737588888,"lon":-22.950016666,"category":"event","wikidataId":"Q482315","wikiTitle":"Amílcar Cabral International Airport","notability":29},{"id":"q-h-Q1191196","name":"Praia International Airport","startYear":2005,"lat":14.941111111,"lon":-23.484722222,"category":"event","wikidataId":"Q1191196","wikiTitle":"Praia International Airport","notability":27},{"id":"q-h-Q1430965","name":"Aristides Pereira International Airport","startYear":1939,"lat":16.137222222,"lon":-22.888611111,"category":"event","wikidataId":"Q1430965","wikiTitle":"Aristides Pereira International Airport","notability":22},{"id":"q-h-Q674514","name":"Cesária Évora Airport","startYear":1960,"lat":16.833611111,"lon":-25.054722222,"category":"event","wikidataId":"Q674514","wikiTitle":"Cesária Évora Airport","notability":21},{"id":"q-h-Q486580","name":"Pedra de Lume","startYear":1855,"lat":16.763888888,"lon":-22.893055555,"category":"event","wikidataId":"Q486580","wikiTitle":"Pedra de Lume","notability":16},{"id":"q-h-Q543335","name":"Francisco Mendes International Airport","startYear":1961,"lat":14.9261,"lon":-23.4948,"category":"event","wikidataId":"Q543335","wikiTitle":"Francisco Mendes International Airport","notability":15},{"id":"q-h-Q17714776","name":"Estádio Pelé","startYear":2014,"lat":14.975688888,"lon":-23.530686111,"category":"event","wikidataId":"Q17714776","wikiTitle":"Estádio Pelé","notability":15},{"id":"q-h-Q490593","name":"Ilhéu de Sal-Rei","startYear":1888,"lat":16.173,"lon":-22.933,"category":"event","wikidataId":"Q490593","wikiTitle":"Ilhéu de Sal-Rei","notability":14},{"id":"q-h-Q569437","name":"Estádio da Várzea","startYear":2006,"lat":14.916111,"lon":-23.512222,"category":"event","wikidataId":"Q569437","wikiTitle":"Estádio da Várzea","notability":14},{"id":"q-h-Q1031493","name":"Tarrafal camp","startYear":1936,"lat":15.264166666,"lon":-23.743888888,"category":"event","wikidataId":"Q1031493","wikiTitle":"Tarrafal camp","notability":14},{"id":"q-h-Q6974145","name":"National Library of Cape Verde","startYear":1999,"lat":14.91608333,"lon":-23.51208333,"category":"event","wikidataId":"Q6974145","wikiTitle":"National Library of Cape Verde","notability":14},{"id":"q-h-Q1707609","name":"University of Cape Verde","startYear":2006,"lat":14.922861111,"lon":-23.548444444,"category":"event","wikidataId":"Q1707609","wikiTitle":"University of Cape Verde","notability":12}]}