{"events":[{"id":"q-h-Q101625","name":"Marrakech","startYear":1065,"lat":31.62947,"lon":-7.98108,"category":"event","wikidataId":"Q101625","wikiTitle":"Marrakech","notability":138},{"id":"q-h-Q126148","name":"Tangier","startYear":-401,"lat":35.776666666,"lon":-5.803888888,"category":"city","wikidataId":"Q126148","wikiTitle":"Tangier","notability":125},{"id":"q-h-Q80985","name":"Fez","startYear":789,"lat":34.043333333,"lon":-5.003333333,"category":"city","wikidataId":"Q80985","wikiTitle":"Fez","notability":124},{"id":"q-h-Q11959","name":"Alicante","startYear":-230,"lat":38.345277777,"lon":-0.483055555,"category":"city","wikidataId":"Q11959","wikiTitle":"Alicante","notability":110},{"id":"q-h-Q170525","name":"Agadir","startYear":1505,"lat":30.421388888,"lon":-9.583055555,"category":"city","wikidataId":"Q170525","wikiTitle":"Agadir","notability":106},{"id":"q-h-Q15679","name":"Badajoz","startYear":875,"lat":38.87789,"lon":-6.970609,"category":"city","wikidataId":"Q15679","wikiTitle":"Badajoz","notability":95},{"id":"q-h-Q10333","name":"Valencia CF","startYear":1919,"lat":39.4746556,"lon":-0.3585902,"category":"event","wikidataId":"Q10333","wikiTitle":"Valencia CF","notability":92},{"id":"q-h-Q15092","name":"Castellón de la Plana","startYear":1251,"lat":39.985980555,"lon":-0.037438888,"category":"city","wikidataId":"Q15092","wikiTitle":"Castellón de la Plana","notability":83},{"id":"q-h-Q487981","name":"Benidorm","startYear":1325,"lat":38.534166666,"lon":-0.131388888,"category":"city","wikidataId":"Q487981","wikiTitle":"Benidorm","notability":83},{"id":"q-h-Q28471","name":"Royal Monastery of San Lorenzo de El Escorial","startYear":1563,"lat":40.589167,"lon":-4.147778,"category":"event","wikidataId":"Q28471","wikiTitle":"Royal Monastery of San Lorenzo de El Escorial","notability":81},{"id":"q-h-Q160112","name":"Museo del Prado","startYear":1819,"lat":40.413888888,"lon":-3.692222222,"category":"event","wikidataId":"Q160112","wikiTitle":"Museo del Prado","notability":80},{"id":"q-h-Q171416","name":"Battle of Trafalgar","startYear":1805,"lat":36.25,"lon":-6.2,"category":"event","wikidataId":"Q171416","wikiTitle":"Battle of Trafalgar","notability":78},{"id":"q-h-Q166276","name":"Madrid-Barajas Airport","startYear":1931,"lat":40.472222222,"lon":-3.560833333,"category":"event","wikidataId":"Q166276","wikiTitle":"Madrid-Barajas Airport","notability":74},{"id":"q-h-Q12292","name":"Villarreal","startYear":1274,"lat":39.937777777,"lon":-0.101388888,"category":"city","wikidataId":"Q12292","wikiTitle":"Villarreal","notability":71},{"id":"q-h-Q179199","name":"Guggenheim Museum Bilbao","startYear":1997,"lat":43.26883,"lon":-2.934099,"category":"monument","wikidataId":"Q179199","wikiTitle":"Guggenheim Museum Bilbao","notability":67},{"id":"q-h-Q378014","name":"University of al-Qarawiyyin","startYear":859,"lat":34.064444444,"lon":-4.973333333,"category":"event","wikidataId":"Q378014","wikiTitle":"University of al-Qarawiyyin","notability":67},{"id":"q-h-Q308963","name":"University of Salamanca","startYear":1218,"lat":40.961388888,"lon":-5.666666666,"category":"event","wikidataId":"Q308963","wikiTitle":"University of Salamanca","notability":66},{"id":"q-h-Q487801","name":"Barakaldo","startYear":1051,"lat":43.297222222,"lon":-2.991666666,"category":"city","wikidataId":"Q487801","wikiTitle":"Barakaldo","notability":65},{"id":"q-h-Q187483","name":"Bayeux Tapestry","startYear":1070,"lat":49.27436,"lon":-0.70029,"category":"event","wikidataId":"Q187483","wikiTitle":"Bayeux Tapestry","notability":64},{"id":"q-h-Q205136","name":"Cathedral of Santiago de Compostela","startYear":801,"lat":42.880555555,"lon":-8.544444444,"category":"monument","wikidataId":"Q205136","wikiTitle":"Cathedral of Santiago de Compostela","notability":64},{"id":"q-h-Q750403","name":"Biblioteca Nacional de España","startYear":1711,"lat":40.423822,"lon":-3.690215,"category":"event","wikidataId":"Q750403","wikiTitle":"Biblioteca Nacional de España","notability":64},{"id":"q-h-Q231606","name":"Seville Cathedral","startYear":1410,"lat":37.385742159,"lon":-5.993095562,"category":"monument","wikidataId":"Q231606","wikiTitle":"Seville Cathedral","notability":63},{"id":"q-h-Q478207","name":"Kenitra","startYear":1912,"lat":34.25,"lon":-6.583333333,"category":"city","wikidataId":"Q478207","wikiTitle":"Kenitra","notability":62},{"id":"q-h-Q651392","name":"Melilla Airport","startYear":1969,"lat":35.279722222,"lon":-2.956388888,"category":"event","wikidataId":"Q651392","wikiTitle":"Melilla Airport","notability":62},{"id":"q-h-Q852276","name":"Sidi Bel Abbès","startYear":1849,"lat":35.2,"lon":-0.633333333,"category":"city","wikidataId":"Q852276","wikiTitle":"Sidi Bel Abbès","notability":58}]}