{"events":[{"id":"q-h-Q7785","name":"Commonwealth of Nations","startYear":1931,"lat":51.505,"lon":-0.135833,"category":"event","wikidataId":"Q7785","wikiTitle":"Commonwealth of Nations","notability":156},{"id":"q-h-Q9531","name":"British Broadcasting Corporation","startYear":1927,"lat":51.518563,"lon":-0.143774,"category":"event","wikidataId":"Q9531","wikiTitle":"British Broadcasting Corporation","notability":149},{"id":"q-h-Q34433","name":"University of Oxford","startYear":1096,"lat":51.755,"lon":-1.255,"category":"event","wikidataId":"Q34433","wikiTitle":"University of Oxford","notability":146},{"id":"q-h-Q36405","name":"Aberdeen","startYear":1175,"lat":57.15,"lon":-2.1,"category":"city","wikidataId":"Q36405","wikiTitle":"Aberdeen","notability":127},{"id":"q-h-Q9616","name":"Chelsea F.C.","startYear":1905,"lat":51.481666666,"lon":-0.190833333,"category":"event","wikidataId":"Q9616","wikiTitle":"Chelsea F.C.","notability":127},{"id":"q-h-Q42448","name":"Sheffield","startYear":701,"lat":53.380833333,"lon":-1.470277777,"category":"city","wikidataId":"Q42448","wikiTitle":"Sheffield","notability":122},{"id":"q-h-Q41262","name":"Nottingham","startYear":600,"lat":52.955,"lon":-1.149166666,"category":"city","wikidataId":"Q41262","wikiTitle":"Nottingham","notability":121},{"id":"q-h-Q10704","name":"Tórshavn","startYear":901,"lat":62.00981,"lon":-6.77135,"category":"city","wikidataId":"Q10704","wikiTitle":"Tórshavn","notability":119},{"id":"q-h-Q1425428","name":"Newcastle upon Tyne","startYear":200,"lat":54.977777777,"lon":-1.613333333,"category":"city","wikidataId":"Q1425428","wikiTitle":"Newcastle upon Tyne","notability":118},{"id":"q-h-Q11148","name":"The Guardian","startYear":1821,"lat":51.535109414,"lon":-0.121685573,"category":"event","wikidataId":"Q11148","wikiTitle":"The Guardian","notability":111},{"id":"q-h-Q6373","name":"British Museum","startYear":1753,"lat":51.519444444,"lon":-0.126944444,"category":"monument","wikidataId":"Q6373","wikiTitle":"British Museum","notability":108},{"id":"q-h-Q6225","name":"Coventry","startYear":1043,"lat":52.416666666,"lon":-1.516666666,"category":"city","wikidataId":"Q6225","wikiTitle":"Coventry","notability":105},{"id":"q-h-Q23051","name":"Swansea","startYear":1158,"lat":51.616666666,"lon":-3.95,"category":"city","wikidataId":"Q23051","wikiTitle":"Swansea","notability":101},{"id":"q-h-Q29042","name":"Akureyri","startYear":1786,"lat":65.68353,"lon":-18.0878,"category":"city","wikidataId":"Q29042","wikiTitle":"Akureyri","notability":100},{"id":"q-h-Q43475","name":"Derby","startYear":600,"lat":52.921666666,"lon":-1.476666666,"category":"city","wikidataId":"Q43475","wikiTitle":"Derby","notability":98},{"id":"q-h-Q18569","name":"Douglas","startYear":1670,"lat":54.15,"lon":-4.4775,"category":"city","wikidataId":"Q18569","wikiTitle":"Douglas","notability":94},{"id":"q-h-Q129610","name":"Galway","startYear":1124,"lat":53.2719,"lon":-9.0488,"category":"city","wikidataId":"Q129610","wikiTitle":"Galway","notability":94},{"id":"q-h-Q42182","name":"Buckingham Palace","startYear":1703,"lat":51.501,"lon":-0.142,"category":"event","wikidataId":"Q42182","wikiTitle":"Buckingham Palace","notability":93},{"id":"q-h-Q179351","name":"City of Westminster","startYear":1965,"lat":51.4975,"lon":-0.137222222,"category":"city","wikidataId":"Q179351","wikiTitle":"City of Westminster","notability":92},{"id":"q-h-Q41520","name":"Wimbledon Championships","startYear":1877,"lat":51.43375,"lon":-0.214027777,"category":"event","wikidataId":"Q41520","wikiTitle":"Wimbledon Championships","notability":92},{"id":"q-h-Q5933","name":"Westminster Abbey","startYear":1540,"lat":51.4994,"lon":-0.127367,"category":"event","wikidataId":"Q5933","wikiTitle":"Westminster Abbey","notability":91},{"id":"q-h-Q126269","name":"Wolverhampton","startYear":985,"lat":52.584166666,"lon":-2.125277777,"category":"city","wikidataId":"Q126269","wikiTitle":"Wolverhampton","notability":90},{"id":"q-h-Q128147","name":"Kingston upon Hull","startYear":1101,"lat":53.744444444,"lon":-0.3325,"category":"city","wikidataId":"Q128147","wikiTitle":"Kingston upon Hull","notability":90},{"id":"q-h-Q160302","name":"University of Edinburgh","startYear":1583,"lat":55.947388888,"lon":-3.187194444,"category":"event","wikidataId":"Q160302","wikiTitle":"University of Edinburgh","notability":90},{"id":"q-h-Q161491","name":"Reading","startYear":871,"lat":51.454166666,"lon":-0.973055555,"category":"city","wikidataId":"Q161491","wikiTitle":"Reading","notability":90},{"id":"q-h-Q123885","name":"Royal Society","startYear":1660,"lat":51.506111111,"lon":-0.132222222,"category":"event","wikidataId":"Q123885","wikiTitle":"Royal Society","notability":89},{"id":"q-h-Q170263","name":"Chester","startYear":79,"lat":53.2,"lon":-2.883333333,"category":"city","wikidataId":"Q170263","wikiTitle":"Chester","notability":88},{"id":"q-h-Q20075","name":"London Underground","startYear":1890,"lat":51.49277778,"lon":-0.10083333,"category":"event","wikidataId":"Q20075","wikiTitle":"London Underground","notability":88},{"id":"q-h-Q170027","name":"University of London","startYear":1836,"lat":51.5229378,"lon":-0.1308206,"category":"event","wikidataId":"Q170027","wikiTitle":"University of London","notability":87},{"id":"q-h-Q134902","name":"Stoke-on-Trent","startYear":1925,"lat":53,"lon":-2.183333333,"category":"city","wikidataId":"Q134902","wikiTitle":"Stoke-on-Trent","notability":87},{"id":"q-h-Q170478","name":"Bournemouth","startYear":1810,"lat":50.72,"lon":-1.88,"category":"city","wikidataId":"Q170478","wikiTitle":"Bournemouth","notability":86},{"id":"q-h-Q83125","name":"Tower Bridge","startYear":1886,"lat":51.505555555,"lon":-0.075277777,"category":"event","wikidataId":"Q83125","wikiTitle":"Tower Bridge","notability":86},{"id":"q-h-Q42646","name":"Windsor Castle","startYear":1070,"lat":51.483888888,"lon":-0.604444444,"category":"monument","wikidataId":"Q42646","wikiTitle":"Windsor Castle","notability":85},{"id":"q-h-Q1128631","name":"Leeds United F.C.","startYear":1919,"lat":53.77777778,"lon":-1.57222222,"category":"event","wikidataId":"Q1128631","wikiTitle":"Leeds United F.C.","notability":84},{"id":"q-h-Q172438","name":"Peterborough","startYear":655,"lat":52.5725,"lon":-0.243055555,"category":"city","wikidataId":"Q172438","wikiTitle":"Peterborough","notability":83},{"id":"q-h-Q171866","name":"Middlesbrough","startYear":1830,"lat":54.573888888,"lon":-1.233333333,"category":"city","wikidataId":"Q171866","wikiTitle":"Middlesbrough","notability":82},{"id":"q-h-Q11005","name":"House of Commons","startYear":1801,"lat":51.49988889,"lon":-0.12466667,"category":"event","wikidataId":"Q11005","wikiTitle":"House of Commons","notability":81},{"id":"q-h-Q189288","name":"Stratford-upon-Avon","startYear":1196,"lat":52.192777777,"lon":-1.706388888,"category":"city","wikidataId":"Q189288","wikiTitle":"Stratford-upon-Avon","notability":80},{"id":"q-h-Q128468","name":"Wembley Stadium","startYear":2002,"lat":51.555555555,"lon":-0.279444444,"category":"event","wikidataId":"Q128468","wikiTitle":"Wembley Stadium","notability":78},{"id":"q-h-Q130206","name":"London Bridge","startYear":1973,"lat":51.508055555,"lon":-0.087777777,"category":"event","wikidataId":"Q130206","wikiTitle":"London Bridge","notability":78},{"id":"q-h-Q160659","name":"London Eye","startYear":1999,"lat":51.503333333,"lon":-0.119722222,"category":"event","wikidataId":"Q160659","wikiTitle":"London Eye","notability":78},{"id":"q-h-Q45671","name":"Anfield","startYear":1884,"lat":53.430833333,"lon":-2.960833333,"category":"event","wikidataId":"Q45671","wikiTitle":"Anfield","notability":78},{"id":"q-h-Q23308","name":"British Library","startYear":1973,"lat":51.529444,"lon":-0.126944,"category":"event","wikidataId":"Q23308","wikiTitle":"British Library","notability":78}]}